{
  "data": {
    "result": [
      {
        "name": "1-й Нагатинский пр-д, д. 11, корп. 2",
        "route": "Ежедневно 9:00-21:00",
        "code_apt": 5222,
        "id": 5222,
        "city": "Москва г",
        "id_cities": "7700000000000000000000000",
        "codePhone": "()",
        "phone": "",
        "default": 1,
        "latlng": {
          "latitude": "55.678517",
          "longitude": "37.636117"
        }
      },
      {
        "name": "Дмитрия Донского б-р, д. 10",
        "route": "Ежедневно 9:00-21:00",
        "code_apt": 9617,
        "id": 9617,
        "city": "Москва г",
        "id_cities": "7700000000000000000000000",
        "codePhone": "(495)",
        "phone": "1379495",
        "default": 1,
        "latlng": {
          "latitude": "55.567421",
          "longitude": "37.573581"
        }
      },
      {
        "name": "3-й Нижнелихоборский проезд, д. 16\/25",
        "route": "Ежедневно 8:00-21:00",
        "code_apt": 12064,
        "id": 12064,
        "city": "Москва г",
        "id_cities": "7700000000000000000000000",
        "codePhone": "()",
        "phone": "",
        "default": 0,
        "latlng": {
          "latitude": "55.846562",
          "longitude": "37.572335"
        }
      },
      {
        "name": "Авиамоторная ул, д. 28,к6",
        "route": "Ежедневно 9:00-21:00",
        "code_apt": 10370,
        "id": 10370,
        "city": "Москва г",
        "id_cities": "7700000000000000000000000",
        "codePhone": "(495)",
        "phone": "137-94-95",
        "default": 0,
        "latlng": {
          "latitude": "55.746159",
          "longitude": "37.720254"
        }
      },
      {
        "name": "Братиславская ул, д. 13, кор. 1",
        "route": "Ежедневно 9:00-21:00",
        "code_apt": 11984,
        "id": 11984,
        "city": "Москва г",
        "id_cities": "7700000000000000000000000",
        "codePhone": "(495)",
        "phone": "1379495",
        "default": 0,
        "latlng": {
          "latitude": "55.661340",
          "longitude": "37.759986"
        }
      },
      {
        "name": "Булатниковский проезд, д. 2В, корп.4",
        "route": "Ежедневно 9:00-21:00",
        "code_apt": 9755,
        "id": 9755,
        "city": "Москва г",
        "id_cities": "7700000000000000000000000",
        "codePhone": "()",
        "phone": "",
        "default": 0,
        "latlng": {
          "latitude": "55.594337",
          "longitude": "37.648327"
        }
      },
      {
        "name": "Бутырская ул, д. 4",
        "route": "Ежедневно 9:00-21:00",
        "code_apt": 11792,
        "id": 11792,
        "city": "Москва г",
        "id_cities": "7700000000000000000000000",
        "codePhone": "(495)",
        "phone": "1379495",
        "default": 0,
        "latlng": {
          "latitude": "55.794750",
          "longitude": "37.585762"
        }
      },
      {
        "name": "Варшавское ш, д. 78\\2, помещ. 8\/1",
        "route": "Ежедневно 9:00-21:00",
        "code_apt": 11881,
        "id": 11881,
        "city": "Москва г",
        "id_cities": "7700000000000000000000000",
        "codePhone": "(495)",
        "phone": "137-94-95",
        "default": 0,
        "latlng": {
          "latitude": "55.653992",
          "longitude": "37.618779"
        }
      },
      {
        "name": "Гагаринский, Ленинский пр-кт, д. 73, кв. 8, пом. 2",
        "route": "Ежедневно 9:00-21:00",
        "code_apt": 7167,
        "id": 7167,
        "city": "Москва г",
        "id_cities": "7700000000000000000000000",
        "codePhone": "(495)",
        "phone": "1379495",
        "default": 0,
        "latlng": {
          "latitude": "55.687983",
          "longitude": "37.546633"
        }
      },
      {
        "name": "Жулебинский б-р, д. 9",
        "route": "Ежедневно 8:00-22:00",
        "code_apt": 9955,
        "id": 9955,
        "city": "Москва г",
        "id_cities": "7700000000000000000000000",
        "codePhone": "(495)",
        "phone": "",
        "default": 0,
        "latlng": {
          "latitude": "55.697921",
          "longitude": "37.848642"
        }
      },
      {
        "name": "Зеленоград г, -, д. 1824",
        "route": "Ежедневно 9:00-21:00",
        "code_apt": 11375,
        "id": 11375,
        "city": "Зеленоград г",
        "id_cities": "7700000200000000000000000",
        "codePhone": "(495)",
        "phone": "1379495",
        "default": 0,
        "latlng": {
          "latitude": "55.981570",
          "longitude": "37.168939"
        }
      },
      {
        "name": "Зеленый пр-кт, д. 60\/35, кв. пом.326",
        "route": "Ежедневно 9:00-21:00",
        "code_apt": 6582,
        "id": 6582,
        "city": "Москва г",
        "id_cities": "7700000000000000000000000",
        "codePhone": "(495)",
        "phone": "137-94-95",
        "default": 0,
        "latlng": {
          "latitude": "55.750983",
          "longitude": "37.818483"
        }
      },
      {
        "name": "Зои и Александра Космодемьянских ул, д. 42",
        "route": "Ежедневно 9:00-21:00",
        "code_apt": 9761,
        "id": 9761,
        "city": "Москва г",
        "id_cities": "7700000000000000000000000",
        "codePhone": "(495)",
        "phone": "137-94-95",
        "default": 0,
        "latlng": {
          "latitude": "55.825040",
          "longitude": "37.528317"
        }
      },
      {
        "name": "Киевский п, Киевский рп, ., д. 23А",
        "route": "Ежедневно 8:00-21:00",
        "code_apt": 9480,
        "id": 9480,
        "city": "Киевский рп",
        "id_cities": "7700500000300000000000000",
        "codePhone": "(495)",
        "phone": "1379495",
        "default": 0,
        "latlng": {
          "latitude": "55.431233",
          "longitude": "36.865683"
        }
      },
      {
        "name": "Космонавтов ул, д. 15,пом. 1\/1",
        "route": "Ежедневно 9:00-22:00",
        "code_apt": 11978,
        "id": 11978,
        "city": "Москва г",
        "id_cities": "7700000000000000000000000",
        "codePhone": "(495)",
        "phone": "137-94-95",
        "default": 0,
        "latlng": {
          "latitude": "55.821641",
          "longitude": "37.660409"
        }
      },
      {
        "name": "Красного Маяка ул, д. 2",
        "route": "Ежедневно 9:00-21:00",
        "code_apt": 9938,
        "id": 9938,
        "city": "Москва г",
        "id_cities": "7700000000000000000000000",
        "codePhone": "(495)",
        "phone": "137-94-95",
        "default": 0,
        "latlng": {
          "latitude": "55.611827",
          "longitude": "37.601786"
        }
      },
      {
        "name": "Лермонтовский пр-кт, д. д.8, корп.1.",
        "route": "Ежедневно 9:00-21:00",
        "code_apt": 7136,
        "id": 7136,
        "city": "Москва г",
        "id_cities": "7700000000000000000000000",
        "codePhone": "(495)",
        "phone": "1379495",
        "default": 0,
        "latlng": {
          "latitude": "55.701867",
          "longitude": "37.850067"
        }
      },
      {
        "name": "Люблинская ул, д. 175",
        "route": "Ежедневно 9:00-21:00",
        "code_apt": 7166,
        "id": 7166,
        "city": "Москва г",
        "id_cities": "7700000000000000000000000",
        "codePhone": "(495)",
        "phone": "1379495",
        "default": 0,
        "latlng": {
          "latitude": "55.646017",
          "longitude": "37.747517"
        }
      },
      {
        "name": "Маршала Бирюзова ул, д. 19",
        "route": "Ежедневно 9:00-21:00",
        "code_apt": 11530,
        "id": 11530,
        "city": "Москва г",
        "id_cities": "7700000000000000000000000",
        "codePhone": "(495)",
        "phone": "137-94-95",
        "default": 0,
        "latlng": {
          "latitude": "55.794356",
          "longitude": "37.491002"
        }
      },
      {
        "name": "Маршала Савицкого ул, д. 12",
        "route": "Ежедневно 9:00-21:00",
        "code_apt": 9757,
        "id": 9757,
        "city": "Москва г",
        "id_cities": "7700000000000000000000000",
        "codePhone": "()",
        "phone": "",
        "default": 0,
        "latlng": {
          "latitude": "55.504313",
          "longitude": "37.583799"
        }
      },
      {
        "name": "Маршала Савицкого ул, д. 22",
        "route": "Ежедневно 9:00-21:00",
        "code_apt": 9756,
        "id": 9756,
        "city": "Москва г",
        "id_cities": "7700000000000000000000000",
        "codePhone": "()",
        "phone": "",
        "default": 0,
        "latlng": {
          "latitude": "55.504704",
          "longitude": "37.591466"
        }
      },
      {
        "name": "Менжинского ул, д. 32, корп 3",
        "route": "Ежедневно 9:00-21:00",
        "code_apt": 7324,
        "id": 7324,
        "city": "Москва г",
        "id_cities": "7700000000000000000000000",
        "codePhone": "(495)",
        "phone": "1379495",
        "default": 0,
        "latlng": {
          "latitude": "55.870200",
          "longitude": "37.665600"
        }
      },
      {
        "name": "Миклухо-Маклая ул, д. 33",
        "route": "Ежедневно 9:00-21:00",
        "code_apt": 10146,
        "id": 10146,
        "city": "Москва г",
        "id_cities": "7700000000000000000000000",
        "codePhone": "(495)",
        "phone": "137-94-95",
        "default": 0,
        "latlng": {
          "latitude": "55.646125",
          "longitude": "37.519277"
        }
      },
      {
        "name": "Новоясеневский пр-кт, д. 2, стр. 2",
        "route": "Ежедневно 9:00-21:00",
        "code_apt": 8941,
        "id": 8941,
        "city": "Москва г",
        "id_cities": "7700000000000000000000000",
        "codePhone": "(495)",
        "phone": "1379495",
        "default": 0,
        "latlng": {
          "latitude": "55.617479",
          "longitude": "37.507345"
        }
      },
      {
        "name": "Новоясеневский пр-кт.владение 2Б, стр. 1",
        "route": "Ежедневно 8:00-22:00",
        "code_apt": 8942,
        "id": 8942,
        "city": "Москва г",
        "id_cities": "7700000000000000000000000",
        "codePhone": "(495)",
        "phone": "1379495",
        "default": 0,
        "latlng": {
          "latitude": "55.618317",
          "longitude": "37.505150"
        }
      },
      {
        "name": "Парковая 3-я ул, д. 8\/19",
        "route": "Ежедневно 9:00-21:00",
        "code_apt": 12004,
        "id": 12004,
        "city": "Москва г",
        "id_cities": "7700000000000000000000000",
        "codePhone": "(495)",
        "phone": "137-94-95",
        "default": 0,
        "latlng": {
          "latitude": "55.790520",
          "longitude": "37.784486"
        }
      },
      {
        "name": "Первомайская ул, д. 80",
        "route": "Пн-Пт 9:00-21:00,  Сб,Вс 9:00-20:00",
        "code_apt": 5932,
        "id": 5932,
        "city": "Москва г",
        "id_cities": "7700000000000000000000000",
        "codePhone": "(495)",
        "phone": "1379495",
        "default": 0,
        "latlng": {
          "latitude": "55.793083",
          "longitude": "37.803017"
        }
      },
      {
        "name": "Пролетарский пр-кт, д. 25",
        "route": "Пн-Пт 8:00-22:00,  Сб,Вс 9:00-21:00",
        "code_apt": 8080,
        "id": 8080,
        "city": "Москва г",
        "id_cities": "7700000000000000000000000",
        "codePhone": "(495)",
        "phone": "1379495",
        "default": 0,
        "latlng": {
          "latitude": "55.636383",
          "longitude": "37.657033"
        }
      },
      {
        "name": "Стратонавтов проезд, д. 11",
        "route": "Ежедневно 8:00-22:00",
        "code_apt": 11246,
        "id": 11246,
        "city": "Москва г",
        "id_cities": "7700000000000000000000000",
        "codePhone": "(495)",
        "phone": "137-94-95",
        "default": 0,
        "latlng": {
          "latitude": "55.827369",
          "longitude": "37.437491"
        }
      },
      {
        "name": "Туристская ул, д. 19, кор. 1",
        "route": "Ежедневно 9:00-21:00",
        "code_apt": 5951,
        "id": 5951,
        "city": "Москва г",
        "id_cities": "7700000000000000000000000",
        "codePhone": "(495)",
        "phone": "137-94-95",
        "default": 0,
        "latlng": {
          "latitude": "55.852083",
          "longitude": "37.421500"
        }
      },
      {
        "name": "Энтузиастов ш, д. 98Б,стр.1,пом.2\/1",
        "route": "Ежедневно 9:00-21:00",
        "code_apt": 10350,
        "id": 10350,
        "city": "Москва г",
        "id_cities": "7700000000000000000000000",
        "codePhone": "(495)",
        "phone": "",
        "default": 0,
        "latlng": {
          "latitude": "55.771477",
          "longitude": "37.832785"
        }
      },
      {
        "name": "Яна Райниса б-р, д. 2, корп.1",
        "route": "Ежедневно 9:00-21:00",
        "code_apt": 7307,
        "id": 7307,
        "city": "Москва г",
        "id_cities": "7700000000000000000000000",
        "codePhone": "(495)",
        "phone": "1379495",
        "default": 0,
        "latlng": {
          "latitude": "55.851150",
          "longitude": "37.436617"
        }
      }
    ]
  },
  "status": "success"
}
